City,Country,Longitude,Latitude,Date,Temperature (F),Humidity (%),Cloudiness (%),Wind Speed (mph),Max Temperature (F)
makakilo city,US,-158.0858,21.3469,1621136648,78.87,47,1,10.36,82.4
kodinsk,RU,99.1844,58.6881,1621136648,43.86,32,14,8.68,43.86
banda aceh,ID,95.3222,5.5577,1621136648,85.08,73,100,4.29,85.08
port alfred,ZA,26.891,-33.5906,1621136649,60.66,85,97,16.2,60.66
matara,LK,80.5353,5.9485,1621136649,85.64,72,99,10.58,85.64
ures,MX,-110.4,29.4333,1621136650,74.62,36,0,1.99,79.0
busselton,AU,115.3333,-33.65,1621136650,64.99,65,100,1.01,64.99
atuona,PF,-139.0333,-9.8,1621136650,79.52,66,6,15.99,79.52
airai,TL,125.4092,-8.9266,1621136651,72.82,50,90,4.52,72.82
lokot,RU,34.5776,52.565,1621136651,55.51,90,33,5.59,55.51
rikitea,PF,-134.9692,-23.1203,1621136616,74.79,65,97,18.41,74.79
mersing,MY,103.8405,2.4312,1621136652,89.6,70,40,3.44,89.6
ylivieska,FI,24.55,64.0833,1621136652,44.49,61,100,1.99,50.0
mataura,NZ,168.8643,-46.1927,1621136624,52.0,73,6,5.01,52.0
ekuvukeni,ZA,30.1551,-28.4675,1621136653,54.77,39,1,3.18,54.77
ushuaia,AR,-68.3,-54.8,1621136359,42.8,70,20,9.22,42.8
los llanos de aridane,ES,-17.9182,28.6585,1621136647,63.18,77,0,17.27,68.0
orsk,RU,58.5668,51.2049,1621136607,71.6,49,0,1.14,71.6
nikolskoye,RU,30.7861,59.7035,1621136654,56.39,88,75,4.47,57.2
labuhan,ID,112.2051,-6.8844,1621136654,87.13,64,9,3.11,87.13
port elizabeth,ZA,25.5701,-33.918,1621136655,59.0,88,75,17.27,59.0
iqaluit,CA,-68.5145,63.7506,1621136655,23.0,80,75,5.75,23.0
almetyevsk,RU,52.3154,54.9044,1621136655,74.34,46,15,8.9,74.34
tilichiki,RU,166.1,60.4667,1621136656,32.54,90,8,2.73,32.54
hasaki,JP,140.8333,35.7333,1621136656,73.33,64,75,13.8,77.0
dikson,RU,80.5464,73.5069,1621136656,24.8,73,100,16.4,24.8
abu samrah,SY,37.1841,35.3029,1621136657,65.82,44,77,6.38,65.82
bredasdorp,ZA,20.0403,-34.5322,1621136657,53.6,87,98,5.75,53.6
klaksvik,FO,-6.589,62.2266,1621136617,42.8,93,90,18.41,42.8
hambantota,LK,81.1185,6.1241,1621136658,84.2,89,75,3.44,84.2
tura,IN,90.2201,25.5198,1621136658,85.23,61,58,4.72,85.23
medicine hat,CA,-110.6683,50.0501,1621136434,64.27,32,75,4.61,68.0
nome,US,-165.4064,64.5011,1621136659,51.08,40,1,14.97,53.6
praia da vitoria,PT,-27.0667,38.7333,1621136659,65.28,88,40,3.0,66.2
peterhead,GB,-1.7981,57.5058,1621136659,39.4,93,20,2.3,39.99
naryan-mar,RU,53.087,67.6713,1621136660,35.22,57,97,10.33,35.22
esperance,AU,121.9,-33.8667,1621136442,66.2,48,22,17.27,66.2
cherskiy,RU,161.3,68.75,1621136660,38.41,77,35,9.26,38.41
bara,NG,10.7288,10.3744,1621136661,80.74,59,100,6.69,80.74
zhoucheng,CN,116.3117,35.9122,1621136661,66.0,1,100,17.83,66.0
tuktoyaktuk,CA,-133.0374,69.4541,1621136661,35.6,80,20,12.66,35.6
byron bay,AU,153.6167,-28.65,1621136515,63.79,59,40,10.36,64.4
alofi,NU,-169.9187,-19.0595,1621136662,80.6,78,4,12.66,80.6
morondava,MG,44.2833,-20.2833,1621136662,72.79,76,8,5.14,72.79
lorengau,PG,147.2712,-2.0226,1621136663,86.07,71,97,11.72,86.07
anori,BR,-61.6442,-3.7728,1621136663,73.36,98,86,2.53,73.36
isangel,VU,169.2667,-19.55,1621136663,86.0,74,20,4.94,86.0
sitka,US,-135.33,57.0531,1621136664,46.4,71,90,8.05,46.4
punta arenas,CL,-70.9167,-53.15,1621136537,44.29,100,90,9.22,44.6
vaini,TO,-175.2,-21.2,1621136665,80.6,83,75,11.5,80.6
malinovka,BY,27.4374,53.8579,1621136665,50.0,100,90,2.24,50.0
mar del plata,AR,-57.5575,-38.0023,1621136619,53.74,66,100,1.99,55.0
kapaa,US,-159.319,22.0752,1621136666,75.83,57,40,19.57,78.8
zafra,ES,-6.4167,38.4167,1621136666,57.0,89,13,4.0,57.0
barrow,US,-156.7887,71.2906,1621136667,26.6,80,90,10.36,26.6
vostok,RU,135.8833,46.4856,1621136667,62.56,35,33,12.93,62.56
hamilton,US,-84.5333,39.1834,1621136401,60.71,67,90,3.44,63.0
mahebourg,MU,57.7,-20.4081,1621136668,75.2,73,40,18.41,75.2
hilo,US,-155.09,19.7297,1621136668,72.55,51,40,12.66,82.4
general roca,AR,-67.5833,-39.0333,1621136668,41.0,87,0,4.88,41.0
khorixas,NA,14.9667,-20.3667,1621136669,62.31,36,0,5.75,62.31
gayny,RU,54.3241,60.3071,1621136669,69.1,73,94,7.74,69.1
denpasar,ID,115.2167,-8.65,1621136669,84.2,79,20,16.11,84.2
leningradskiy,RU,178.4167,69.3833,1621136636,31.64,91,98,6.78,31.64
kyaikto,MM,97.0167,17.3,1621136670,91.89,58,27,7.85,91.89
roald,NO,6.1333,62.5833,1621136670,48.63,100,75,6.91,50.0
new norfolk,AU,147.0587,-42.7826,1621136671,51.96,82,96,1.99,57.0
georgetown,MY,100.3354,5.4112,1621136634,86.76,74,20,5.75,87.8
severnyy,RU,36.5532,50.677,1621136671,59.0,72,0,4.47,59.0
taveta,KE,37.6736,-3.3963,1621136672,68.0,88,75,4.61,68.0
cananeia,BR,-47.9267,-25.0147,1621136672,64.89,90,86,2.77,64.89
bluff,NZ,168.3333,-46.6,1621136672,52.0,73,57,5.01,52.0
kaitangata,NZ,169.8464,-46.2817,1621136673,52.45,62,2,4.25,52.45
dolores,AR,-57.6792,-36.3132,1621136673,48.49,77,93,4.68,48.49
arman,RU,150.1667,59.7,1621136674,42.57,57,100,13.56,42.57
saint george,US,-113.5841,37.1041,1621136666,81.18,11,1,14.97,82.4
hobart,AU,147.3294,-42.8794,1621136634,55.6,54,75,17.27,57.0
polyarnyy,RU,33.4478,69.1989,1621136674,35.6,93,75,6.71,35.6
albany,US,-73.9662,42.6001,1621136075,53.15,75,100,3.33,55.99
hirara,JP,125.2833,24.8,1621136675,84.94,79,40,18.41,86.0
cape town,ZA,18.4232,-33.9258,1621136675,50.99,93,0,2.3,54.0
kodiak,US,-152.4072,57.79,1621136676,46.4,81,90,4.61,46.4
butaritari,KI,172.7902,3.0707,1621136676,82.96,78,62,15.41,82.96
lebu,CL,-73.65,-37.6167,1621136404,50.49,85,0,7.76,50.49
carnarvon,AU,113.6333,-24.8667,1621136677,78.8,41,40,9.22,78.8
pasni,PK,63.471,25.2631,1621136677,85.37,65,1,6.17,85.37
ahipara,NZ,173.1667,-35.1667,1621136677,65.8,75,10,9.95,65.8
shush,IR,48.2436,32.1942,1621136678,88.63,21,0,10.69,88.63
salinopolis,BR,-47.3561,-0.6136,1621136678,76.28,89,100,8.08,76.28
japura,ID,102.35,-0.3167,1621136679,87.89,65,79,3.58,87.89
lubango,AO,13.4925,-14.9172,1621136679,57.11,52,2,2.95,57.11
dicabisagan,PH,122.4157,17.0818,1621136680,89.2,61,4,9.22,89.2
dawei,MM,98.2,14.0833,1621136680,93.74,51,94,7.14,93.74
narsaq,GL,-46.05,60.9167,1621136680,41.0,36,13,6.91,41.0
bengkulu,ID,102.2655,-3.8004,1621136532,85.28,67,39,4.34,85.28
mana,GF,-53.7767,5.6592,1621136681,76.98,87,59,5.1,76.98
taoudenni,ML,-3.9836,22.6783,1621136681,92.3,12,11,7.31,92.3
hattiesburg,US,-89.2903,31.3271,1621136682,65.59,68,1,3.44,68.0
florence,IT,11.25,43.7667,1621136600,57.7,82,75,1.14,59.0
praya,CV,-23.5087,14.9215,1621136682,69.8,78,75,16.11,69.8
millinocket,US,-68.7098,45.6573,1621136683,52.97,71,75,3.44,55.4
sao joao da barra,BR,-41.0511,-21.6403,1621136669,67.05,81,4,1.34,67.05
oussouye,SN,-16.5469,12.485,1621136683,75.2,88,20,2.3,75.2
beyneu,KZ,55.2,45.3167,1621136684,78.58,17,0,14.18,78.58
ternate,ID,127.4,0.8,1621136684,84.7,72,95,6.2,84.7
ketchikan,US,-131.6461,55.3422,1621136684,51.8,82,90,8.05,51.8
san cristobal,VE,-72.225,7.7669,1621136685,67.37,88,99,2.53,67.37
gobabis,NA,18.9667,-22.45,1621136685,52.88,41,0,6.46,52.88
baie-comeau,CA,-68.1489,49.2168,1621136595,39.2,87,20,3.44,39.2
suoyarvi,RU,32.35,62.0833,1621136686,53.8,72,100,7.52,53.8
sabha,LY,14.4283,27.0377,1621136686,70.99,42,0,14.54,70.99
zorritos,PE,-80.6782,-3.6805,1621136687,73.11,82,100,7.18,73.11
paka,MY,103.4368,4.6374,1621136687,89.31,70,40,2.3,89.6
hithadhoo,MV,73.0833,-0.6,1621136687,84.81,72,100,17.63,84.81
richards bay,ZA,32.0377,-28.783,1621136688,65.48,37,0,4.85,65.48
noumea,NC,166.4572,-22.2763,1621136455,78.85,88,90,6.91,80.01
obama,JP,135.746,35.4958,1621136689,64.33,90,100,3.0,69.01
riyadh,SA,46.7219,24.6877,1621136494,81.07,20,0,9.48,82.4
puerto ayora,EC,-90.3518,-0.7393,1621136689,73.0,98,16,1.99,73.0
jamestown,US,-79.2353,42.097,1621136631,50.14,37,1,2.84,53.6
bonnyville,CA,-110.735,54.2668,1621136690,64.42,30,75,8.05,66.2
qaanaaq,GL,-69.3632,77.484,1621136690,31.62,75,99,8.48,31.62
hemnesberget,NO,13.6333,66.2333,1621136691,48.0,78,96,1.99,48.0
bathsheba,BB,-59.5167,13.2167,1621136691,80.6,61,20,23.02,80.6
yellowknife,CA,-114.3525,62.456,1621136560,36.75,65,75,10.36,37.4
avarua,CK,-159.775,-21.2078,1621136692,78.8,78,75,10.36,78.8
christchurch,NZ,172.6333,-43.5333,1621136636,54.43,82,100,3.44,55.99
lavrentiya,RU,-171.0,65.5833,1621136692,33.33,90,21,3.65,33.33
provideniya,RU,-173.3,64.3833,1621136693,42.75,60,12,3.65,42.75
granadilla de abona,ES,-16.576,28.1188,1621136693,63.61,77,0,2.3,66.99
hermanus,ZA,19.2345,-34.4187,1621136593,54.0,77,100,4.0,54.0
port hardy,CA,-127.4199,50.6996,1621136618,51.51,82,75,11.5,53.6
tessalit,ML,1.0114,20.1986,1621136694,88.0,14,54,5.97,88.0
ancud,CL,-73.8203,-41.8697,1621136694,45.21,100,90,3.44,48.99
huilong,CN,121.655,31.8111,1621136694,82.6,75,100,5.01,82.99
salalah,OM,54.0924,17.0151,1621136432,82.4,69,20,4.61,82.4
ribeira grande,PT,-28.7,38.5167,1621136695,63.45,93,100,4.72,63.45
codrington,AU,141.9667,-38.2667,1621136696,58.62,66,56,20.07,58.62
port blair,IN,92.75,11.6667,1621136696,88.54,65,13,5.41,88.54
collingwood,CA,-80.2164,44.4834,1621136436,50.76,71,28,2.3,51.8
asau,RO,26.4,46.4333,1621136697,52.0,60,100,3.06,52.0
charyshskoye,RU,83.5598,51.3978,1621136697,69.75,41,10,3.62,69.75
whyalla,AU,137.5833,-33.0333,1621136697,59.0,63,90,4.61,59.0
south venice,US,-82.4243,27.0531,1621136698,72.9,56,1,10.36,73.4
sainthia,IN,87.6667,23.95,1621136698,97.95,39,49,7.83,97.95
talaya,RU,152.75,61.3833,1621136698,39.94,72,98,7.07,39.94
navirai,BR,-54.1906,-23.065,1621136699,61.52,64,0,4.03,61.52
cayenne,GF,-52.3333,4.9333,1621136699,75.65,100,90,3.44,75.99
sao filipe,CV,-24.4956,14.8961,1621136700,73.04,71,82,7.81,73.04
lake forest,US,-117.6892,33.647,1621136404,60.37,67,75,5.75,63.0
palmer,US,-72.3287,42.1584,1621136700,51.31,62,90,4.61,55.0
victoria,HK,114.1577,22.2855,1621136628,84.88,71,14,8.01,91.0
turukhansk,RU,87.9833,65.8167,1621136701,25.99,71,84,10.0,25.99
lompoc,US,-120.4579,34.6391,1621136478,50.97,71,83,8.05,55.4
khatanga,RU,102.5,71.9667,1621136702,21.52,83,99,11.59,21.52
ilulissat,GL,-51.1,69.2167,1621136616,37.4,65,75,3.56,37.4
druzhba,UA,33.9453,52.0428,1621136706,55.26,89,13,6.49,55.26
vysokogornyy,RU,139.15,50.1167,1621136706,49.57,78,99,19.37,49.57
chuy,UY,-53.4616,-33.6971,1621136707,50.29,85,89,3.02,50.29
sorata,BO,-68.6333,-15.7667,1621136707,42.73,82,99,0.78,42.73
tiksi,RU,128.8694,71.6872,1621136707,32.34,95,100,7.31,32.34
qaqortoq,GL,-46.0333,60.7167,1621136708,41.0,36,8,6.91,41.0
laguna,US,-121.4238,38.421,1621136708,64.85,59,1,8.05,66.99
ostrovnoy,RU,39.5131,68.0531,1621136644,32.38,95,100,12.88,32.38
husavik,IS,-17.3389,66.0449,1621136709,33.8,64,90,5.75,33.8
faanui,PF,-151.75,-16.4833,1621136709,81.61,71,100,13.89,81.61
quatre cocos,MU,57.7625,-20.2078,1621136709,76.15,73,40,18.41,77.0
gbadolite,CD,21.0167,4.2833,1621136710,68.58,96,100,1.77,68.58
shenjiamen,CN,122.298,29.9576,1621136710,71.15,93,97,11.45,71.15
cidreira,BR,-50.2056,-30.1811,1621136711,60.98,80,26,6.53,60.98
aviles,ES,-5.9248,43.5547,1621136711,58.42,94,75,18.41,59.0
middleton,GB,-2.2,53.55,1621136712,45.7,85,88,3.13,46.99
waharoa,NZ,175.7667,-37.7667,1621136712,64.35,68,16,3.0,64.99
bakuriani,GE,43.5325,41.7497,1621136712,55.31,64,32,8.23,55.31
kassala,SD,36.4,15.451,1621136713,87.08,14,52,3.36,87.08
rio verde de mato grosso,BR,-54.8442,-18.9181,1621136713,73.53,55,61,4.9,73.53
kalmunai,LK,81.8167,7.4167,1621136714,86.81,66,95,5.77,86.81
tsybli,UA,31.5628,49.9948,1621136714,50.0,93,0,3.15,50.0
marawi,PH,124.2928,7.9986,1621136714,80.69,77,76,5.99,80.69
laela,TZ,32.05,-8.5667,1621136715,54.54,87,0,3.56,54.54
kruisfontein,ZA,24.7314,-34.0033,1621136715,57.0,94,100,1.01,57.0
severo-kurilsk,RU,156.125,50.6789,1621136716,41.09,69,100,15.64,41.09
yulara,AU,130.9889,-25.2406,1621136716,64.4,42,1,13.8,64.4
kahului,US,-156.47,20.8947,1621136591,72.84,57,40,20.71,78.8
tateyama,JP,139.8667,34.9833,1621136717,69.82,73,75,6.91,71.6
antibes,FR,7.1278,43.5624,1621136717,58.69,72,0,6.91,60.8
monrovia,LR,-10.7969,6.3005,1621136717,78.84,84,91,4.65,78.84
padang,ID,100.3543,-0.9492,1621136718,86.0,70,20,2.3,86.0
ponta do sol,PT,-17.1,32.6667,1621136718,62.11,68,20,20.71,66.2
wajid,SO,43.2471,3.8093,1621136719,74.88,75,5,16.6,74.88
thompson,CA,-97.8558,55.7435,1621136712,42.8,65,75,4.61,42.8
acapulco,MX,-99.8901,16.8634,1621136643,83.57,76,96,9.6,83.57
sawakin,SD,37.3321,19.1059,1621136720,84.76,33,0,2.1,84.76
whitehorse,CA,-135.0538,60.7161,1621136704,49.06,40,75,12.66,50.0
coruripe,BR,-36.1756,-10.1256,1621136505,74.79,83,85,6.89,74.79
sistranda,NO,8.834,63.7256,1621136721,50.0,66,40,17.27,50.0
east london,ZA,27.9116,-33.0153,1621136721,59.0,88,0,11.5,59.0
fairbanks,US,-147.7164,64.8378,1621136442,58.26,36,75,3.78,61.0
hovd,MN,91.6419,48.0056,1621136722,60.15,25,16,4.68,60.15
kasempa,ZM,25.8338,-13.4584,1621136722,55.0,70,3,3.69,55.0
luganville,VU,167.1667,-15.5333,1621136723,82.9,78,24,3.38,82.9
blackwater,AU,148.8833,-23.5833,1621136723,71.91,22,55,7.72,71.91
upernavik,GL,-56.1549,72.7868,1621136724,28.24,91,100,6.78,28.24
touros,BR,-35.4608,-5.1989,1621136724,73.4,94,20,4.61,73.4
castro,BR,-50.0119,-24.7911,1621136725,49.75,97,1,3.36,49.75
aklavik,CA,-135.0107,68.2191,1621136725,50.0,46,100,4.61,50.0
wakkanai,JP,141.6739,45.4094,1621136725,55.4,94,75,14.97,55.4
gouyave,GD,-61.7296,12.1646,1621136726,80.6,78,40,19.57,80.6
pyapon,MM,95.6833,16.2833,1621136726,96.76,41,10,8.3,96.76
sioux lookout,CA,-91.917,50.1001,1621136726,50.0,76,75,4.94,50.0
ust-tsilma,RU,52.1498,65.441,1621136727,49.6,66,99,6.85,49.6
koslan,RU,48.8989,63.4564,1621136727,55.92,81,100,7.0,55.92
tartagal,AR,-63.8013,-22.5164,1621136431,66.52,68,100,1.43,66.52
pevek,RU,170.3133,69.7008,1621136728,30.72,91,82,0.49,30.72
torbay,CA,-52.7314,47.6666,1621136729,37.09,100,75,5.75,39.0
ulaangom,MN,92.0667,49.9811,1621136729,64.54,31,5,4.34,64.54
coquimbo,CL,-71.3436,-29.9533,1621136503,53.6,94,40,11.5,53.6
lexington,US,-84.4777,37.9887,1621136646,58.05,72,90,5.75,59.0
arraial do cabo,BR,-42.0278,-22.9661,1621136643,69.24,78,17,7.94,69.24
lima,PE,-77.0282,-12.0432,1621136635,62.53,88,90,5.75,63.0
saskylakh,RU,114.0833,71.9167,1621136730,17.24,87,100,15.7,17.24
saint-augustin,CA,-58.6502,51.226,1621136730,39.97,79,100,8.28,39.97
zapolyarnyy,RU,30.8136,69.4154,1621136731,33.8,93,90,6.91,33.8
constitucion,CL,-72.4167,-35.3333,1621136731,54.12,81,31,7.72,54.12
inuvik,CA,-133.7218,68.3499,1621136668,50.0,46,99,4.61,50.0
bafra,TR,35.9069,41.5678,1621136732,59.36,87,0,5.75,64.0
mkushi,ZM,29.3939,-13.6202,1621136732,54.45,76,3,2.93,54.45
krasnaya polyana,RU,51.1442,56.242,1621136732,73.13,46,10,9.17,73.13
mikhaylovka,RU,43.2379,50.06,1621136733,65.75,53,99,7.76,65.75
adrar,MR,-10.0711,20.5022,1621136733,77.63,20,88,8.68,77.63
camacha,PT,-16.3333,33.0833,1621136734,66.2,77,75,13.8,66.2
ndele,CF,20.6473,8.4109,1621136734,72.1,91,100,4.54,72.1
cabra,ES,-4.4421,37.4725,1621136735,59.14,77,0,2.3,62.01
olga,RU,135.2892,43.7444,1621136735,61.07,54,100,7.7,61.07
santiago,CL,-70.6483,-33.4569,1621136509,57.58,76,40,4.61,64.0
doha,QA,51.5333,25.2867,1621136735,89.35,46,0,2.3,91.99
ashland,US,-82.2665,40.8167,1621136736,55.6,60,100,2.53,57.99
log,RU,43.8613,49.4844,1621136736,66.13,50,100,8.5,66.13
soto la marina,MX,-98.2167,23.7667,1621136737,78.01,90,100,8.01,78.01
urubicha,BO,-62.95,-15.3833,1621136737,75.45,64,100,1.66,75.45
marsa matruh,EG,27.2453,31.3525,1621136737,66.2,94,3,4.61,66.2
ukiah,US,-123.2078,39.1502,1621136738,63.9,60,1,4.61,69.8
domoni,KM,44.5319,-12.2569,1621136738,79.09,77,10,5.5,79.09
yeppoon,AU,150.7333,-23.1333,1621136739,73.4,21,5,5.75,73.4
karasuk,RU,78.0403,53.7377,1621136739,75.47,41,50,10.96,75.47
talnakh,RU,88.3972,69.4865,1621136739,20.19,89,99,5.19,20.19
hopfgarten,DE,11.2667,50.9833,1621136740,46.06,88,100,13.31,46.99
ust-kulom,RU,53.6902,61.6864,1621136740,62.8,81,93,4.9,62.8
aswan,EG,32.907,24.0934,1621136740,80.71,11,0,7.52,80.71
bowen,AU,148.2333,-20.0167,1621136741,73.4,40,0,13.8,73.4
pendleton,US,-118.7886,45.6721,1621136741,66.38,37,1,8.05,69.8
aras,ES,-2.356,42.5617,1621136742,64.4,68,75,10.36,64.4
hami,CN,93.45,42.8,1621136742,78.03,13,100,5.93,78.03
norman wells,CA,-126.8329,65.282,1621136654,50.0,46,75,10.36,50.0
nova olimpia,BR,-57.2881,-14.7972,1621136743,71.17,73,98,1.25,71.17
whitianga,NZ,175.7,-36.8333,1621136743,66.0,78,8,5.99,66.0
chokurdakh,RU,147.9167,70.6333,1621136743,33.04,98,100,7.05,33.04
clyde river,CA,-68.5914,70.4692,1621136744,10.4,67,1,2.3,10.4
dingle,PH,122.6711,10.9995,1621136744,89.28,59,100,13.51,89.28
chenzhou,CN,113.0333,25.8,1621136744,88.57,64,19,6.17,88.57
kununurra,AU,128.7333,-15.7667,1621136745,80.6,28,0,12.66,80.6
presidencia roque saenz pena,AR,-60.4388,-26.7852,1621136745,66.0,86,54,4.47,66.0
rincon,US,-81.2354,32.296,1621136746,58.55,67,1,3.47,62.6
yondo,CO,-73.9097,7.0062,1621136746,74.93,98,100,1.05,74.93
north bend,US,-124.2243,43.4065,1621136746,50.27,87,90,13.8,51.01
vila velha,BR,-40.2925,-20.3297,1621136747,68.0,88,75,2.3,68.0
fortuna,US,-124.1573,40.5982,1621136747,50.31,100,90,8.05,52.0
devils lake,US,-98.8651,48.1128,1621136479,57.2,62,1,4.61,57.2
mbalmayo,CM,11.5,3.5167,1621136714,68.0,100,75,8.05,68.0
praia,CV,-23.5087,14.9215,1621136682,69.8,78,75,16.11,69.8
nizwa,OM,57.5333,22.9333,1621136748,93.56,14,4,3.62,93.56
oranjemund,NA,16.4333,-28.55,1621136749,59.47,97,50,5.79,59.47
zhezkazgan,KZ,67.7144,47.8043,1621136749,72.64,29,0,8.43,72.64
nouadhibou,MR,-17.0347,20.931,1621136749,64.4,88,0,16.11,64.4
seoul,KR,126.9778,37.5683,1621136590,66.22,94,90,3.44,68.0
macau,MO,113.5461,22.2006,1621136750,90.34,74,40,11.5,91.4
santo antonio do ica,BR,-67.9397,-3.1022,1621136750,72.93,98,100,1.25,72.93
souillac,MU,57.5167,-20.5167,1621136751,75.2,73,40,18.41,75.2
korla,CN,86.1469,41.7597,1621136751,67.64,28,100,11.83,67.64
grindavik,IS,-22.4338,63.8424,1621136751,35.6,69,0,10.36,35.6
burkburnett,US,-98.5706,34.0979,1621136752,70.21,83,90,11.5,71.01
grand junction,US,-108.5507,39.0639,1621136752,70.03,9,1,10.36,73.4
tomatlan,MX,-105.25,19.9333,1621136752,78.17,68,1,1.61,78.17
yol,IN,76.2,32.1667,1621136753,84.88,28,57,4.65,84.88
chichli,IN,78.8167,22.8333,1621136753,97.79,31,65,8.86,97.79
bambanglipuro,ID,110.2833,-7.95,1621136754,85.46,66,29,13.2,85.46
saint-philippe,RE,55.7679,-21.3585,1621136754,74.44,78,40,16.11,75.2
berlevag,NO,29.0864,70.8578,1621136755,35.06,83,100,21.18,35.06
unity,CA,-109.1682,52.4501,1621136755,61.7,41,100,2.24,61.7
la carolina,ES,-3.6153,38.2756,1621136755,62.01,57,28,2.46,62.01
vardo,NO,31.1107,70.3705,1621136756,34.34,96,100,19.51,34.34
barcelona,ES,2.159,41.3888,1621136664,61.11,67,20,2.35,64.99
longyearbyen,SJ,15.6401,78.2186,1621136756,23.0,68,75,8.05,23.0
cabo san lucas,MX,-109.9124,22.8909,1621136757,78.01,78,58,15.48,80.01
muisne,EC,-80.0333,0.6,1621136757,76.23,88,96,2.82,76.23
lethem,GY,-59.7968,3.3803,1621136757,76.17,86,80,9.62,76.17
severo-yeniseyskiy,RU,93.0408,60.3725,1621136758,36.03,45,52,7.11,36.03
san jose,US,-121.895,37.3394,1621136661,57.56,67,40,4.61,60.8
acari,PE,-74.6158,-15.4311,1621136758,68.47,72,24,2.93,68.47
esna,EG,32.554,25.2934,1621136759,71.6,16,0,6.76,71.6
paamiut,GL,-49.6678,61.994,1621136759,37.53,66,71,4.38,37.53
korem,ET,39.5228,12.5058,1621136705,59.5,70,89,5.88,59.5
arvika,SE,12.5852,59.6553,1621136760,45.34,100,90,4.61,46.4
bambous virieux,MU,57.7575,-20.3428,1621136760,76.05,73,40,18.41,77.0
ponta delgada,PT,-25.6667,37.7333,1621136760,64.4,100,75,10.36,64.4
durango,MX,-104.8333,24.8333,1621136621,67.41,41,56,14.43,67.41
zholymbet,KZ,71.7122,51.7433,1621136761,74.26,42,45,11.14,74.26
nemuro,JP,145.575,43.3236,1621136761,55.4,94,75,17.27,55.4
bahia honda,CU,-83.1592,22.9036,1621136762,76.08,82,99,10.07,76.08
jambi,ID,103.6167,-1.6,1621136762,87.78,65,37,4.5,87.78
salaga,GH,-0.5188,8.5508,1621136762,77.11,80,100,2.15,77.11
emerald,AU,148.1667,-23.5333,1621136763,69.89,26,54,14.97,70.0
luderitz,NA,15.1594,-26.6481,1621136763,60.17,88,36,5.84,60.17
netishyn,UA,26.6417,50.34,1621136764,48.09,93,27,6.71,48.2
sao raimundo das mangabeiras,BR,-45.4811,-7.0219,1621136764,75.34,69,100,2.17,75.34
toamasina,MG,49.3833,-18.1667,1621136764,69.8,94,40,4.61,69.8
kavieng,PG,150.7967,-2.5744,1621136765,85.89,72,90,15.41,85.89
parkes,AU,148.1833,-33.1333,1621136765,57.0,42,0,3.0,57.0
banbury,GB,-1.3403,52.0602,1621136643,42.33,91,61,6.44,43.0
sehithwa,BW,22.7167,-20.4667,1621136766,56.89,39,0,3.53,56.89
tobol,KZ,62.5794,52.6844,1621136766,77.58,34,7,5.86,77.58
nanakuli,US,-158.1547,21.3906,1621136766,77.29,47,1,10.36,82.4
pilot butte,CA,-104.4178,50.4668,1621136767,60.19,26,44,5.75,61.0
vanimo,PG,141.3028,-2.6741,1621136767,85.5,69,97,7.29,85.5
belovo,RU,86.2976,54.4165,1621136768,64.15,44,61,5.61,64.15
thinadhoo,MV,72.9333,0.5333,1621136768,85.24,72,100,17.22,85.24
fort nelson,CA,-122.7002,58.8053,1621136768,55.4,50,75,4.61,55.4
saldanha,ZA,17.9442,-33.0117,1621136769,50.0,87,0,13.76,50.0
tasiilaq,GL,-37.6368,65.6145,1621136769,28.4,64,20,3.85,28.4
suluq,LY,20.2521,31.6682,1621136769,62.82,75,25,12.08,62.82
pell city,US,-86.2861,33.5862,1621136770,56.93,94,23,2.93,57.99
nador,MA,-2.9287,35.174,1621136770,61.18,55,0,2.33,64.4
naze,JP,129.4833,28.3667,1621136771,82.4,83,75,14.97,82.4
mujiayingzi,CN,118.7833,42.1167,1621136771,66.61,16,100,12.06,66.61
puerto colombia,CO,-74.9547,10.9878,1621136771,80.6,83,40,9.22,80.6
genhe,CN,121.5167,50.7833,1621136772,59.68,25,1,14.2,59.68
kargasok,RU,80.8572,59.0556,1621136772,45.57,92,100,8.5,45.57
beringovskiy,RU,179.3167,63.05,1621136773,32.41,94,90,5.14,32.41
jalu,LY,21.5482,29.0331,1621136773,67.77,50,0,12.21,67.77
kulhudhuffushi,MV,73.07,6.6221,1621136773,85.44,77,100,20.96,85.44
quesnel,CA,-122.5029,52.9999,1621136668,57.2,94,90,3.44,57.2
singaraja,ID,115.0882,-8.112,1621136774,85.96,63,7,3.8,85.96
san carlos de bariloche,AR,-71.3082,-41.1456,1621136774,32.0,74,0,6.91,32.0
ust-ilimsk,RU,102.6619,58.0006,1621136775,43.54,33,16,10.09,43.54
mareeba,AU,145.4333,-17.0,1621136775,79.83,42,0,18.41,82.4
taywarah,AF,64.4167,33.35,1621136775,57.9,17,30,5.79,57.9
bethel,US,-73.414,41.3712,1621136638,57.67,41,1,1.88,60.8
otavi,NA,17.3333,-19.65,1621136776,56.3,43,0,4.65,56.3
portel,BR,-50.8211,-1.9356,1621136777,73.17,97,100,4.79,73.17
gizo,SB,156.8419,-8.103,1621136777,86.32,65,63,2.82,86.32
pishin,PK,66.9961,30.5803,1621136778,75.24,15,9,4.5,75.24
pisco,PE,-76.2167,-13.7,1621136778,62.78,88,90,2.3,63.0
waipawa,NZ,175.5153,-41.4122,1621136778,60.44,72,75,23.02,62.6
mezhdurechenskiy,RU,65.9333,59.6,1621136779,66.76,65,96,2.17,66.76
shihezi,CN,86.0333,44.3,1621136779,66.92,40,96,5.12,66.92
lauterbach,DE,9.4,50.6333,1621136780,45.97,92,78,1.01,46.99
aksu,CN,80.2644,41.1231,1621136780,60.75,38,20,2.82,60.75
ovsyanka,RU,92.5519,55.9575,1621136781,46.4,93,90,2.24,46.4
pangnirtung,CA,-65.7125,66.1451,1621136781,9.79,92,69,6.82,9.79
natchitoches,US,-93.1335,31.7668,1621136781,69.8,73,1,7.34,69.8
concarneau,FR,-3.9225,47.875,1621136782,52.68,93,75,6.91,53.6
catanduva,BR,-48.9728,-21.1378,1621136782,69.8,52,0,3.44,69.8
gejiu,CN,103.1635,23.306,1621136783,73.15,42,2,7.83,73.15
puerto penasco,MX,-113.5333,31.3167,1621136783,73.99,74,0,13.0,73.99
arawa,PG,155.5367,-6.2132,1621136783,87.67,65,44,5.03,87.67
keetmanshoop,NA,18.1333,-26.5833,1621136784,51.98,79,0,5.44,51.98
curup,ID,102.5333,-3.4667,1621136784,85.5,52,40,1.39,85.5
cockburn town,TC,-71.1419,21.4612,1621136656,79.29,79,1,13.58,79.29
raudeberg,NO,5.1352,61.9875,1621136785,50.0,93,100,9.35,50.0
coihaique,CL,-72.0662,-45.5752,1621136614,42.8,87,20,8.05,42.8
arlit,NE,7.3853,18.7369,1621136785,85.71,11,0,3.33,85.71
mount isa,AU,139.5,-20.7333,1621136786,77.0,16,0,11.5,77.0
hokitika,NZ,170.9667,-42.7167,1621136786,52.07,94,100,7.45,52.07
bella union,UY,-57.6007,-30.2752,1621136786,55.31,79,78,4.99,55.31
gambiran,ID,111.4951,-6.7988,1621136787,87.55,57,4,6.76,87.55
almaznyy,RU,40.045,48.0448,1621136787,68.0,60,0,6.71,68.0
daru,PG,143.2092,-9.0763,1621136788,81.27,84,99,17.45,81.27
mehamn,NO,27.8492,71.0357,1621136788,34.84,83,100,21.43,34.84
point pedro,LK,80.2333,9.8167,1621136788,86.59,70,100,17.92,86.59
bandarbeyla,SO,50.8122,9.4942,1621136789,86.83,62,2,21.68,86.83
wanxian,CN,108.3897,30.8039,1621136789,65.17,94,100,3.94,65.17
toora-khem,RU,96.11,52.4675,1621136790,51.13,71,96,4.21,51.13
akyab,MM,92.9,20.15,1621136790,88.3,65,28,8.84,88.3
hualmay,PE,-77.6139,-11.0964,1621136790,63.97,86,16,8.52,63.97
hofn,IS,-15.2082,64.2539,1621136791,37.06,62,100,19.04,37.06
qasigiannguit,GL,-51.1922,68.8193,1621136791,37.4,65,75,1.81,37.4
kokopo,PG,152.2633,-4.352,1621136792,87.53,62,95,9.55,87.53
kati,ML,-8.0726,12.7441,1621136792,78.8,73,20,4.61,78.8
irituia,BR,-47.4381,-1.7711,1621136792,71.91,99,100,1.81,71.91
aripuana,BR,-60.6333,-9.1667,1621136793,74.44,81,85,2.21,74.44
sakaiminato,JP,133.2333,35.55,1621136793,76.66,78,75,16.11,78.8
nishihara,JP,127.7558,26.1842,1621136793,85.24,79,20,14.97,87.8
garowe,SO,48.4845,8.4054,1621136794,81.43,58,5,19.17,81.43
bayan,CN,127.4,46.0833,1621136794,70.05,26,99,10.67,70.05
quang ngai,VN,108.8,15.1167,1621136795,97.29,41,5,11.99,97.29
portland,US,-122.6762,45.5234,1621136127,70.02,40,40,10.36,73.4
san quintin,MX,-115.95,30.4833,1621136795,58.96,78,13,14.5,58.96
vylkove,UA,29.586,45.4021,1621136795,60.57,71,100,4.5,60.57
knysna,ZA,23.0471,-34.0363,1621136796,53.6,100,75,6.91,53.6
olavarria,AR,-60.3225,-36.8927,1621136796,53.01,71,98,3.11,53.01
aracruz,BR,-40.2733,-19.8203,1621136797,68.0,88,75,2.3,68.0
mailsi,PK,72.1758,29.8003,1621136797,94.15,27,29,10.2,94.15
itacoatiara,BR,-58.4442,-3.1431,1621136797,75.42,94,98,2.06,75.42
joshimath,IN,79.5667,30.5667,1621136798,69.89,36,2,4.09,69.89
russell,US,-85.1999,32.3502,1621136798,58.05,94,1,2.66,66.2
mecca,SA,39.8261,21.4267,1621136799,83.07,31,0,1.59,83.07
kirando,TZ,30.6,-7.4167,1621136799,74.48,67,93,7.47,74.48
henties bay,NA,14.2845,-22.116,1621136799,62.26,86,1,6.64,62.26
goderich,CA,-81.7165,43.7501,1621136712,50.0,66,98,5.75,50.0
abonnema,NG,6.7931,4.7084,1621136800,75.2,94,40,3.44,75.2
tual,ID,132.75,-5.6667,1621136800,83.34,77,67,23.24,83.34
cap-aux-meules,CA,-61.8597,47.3821,1621136720,42.8,87,92,1.14,42.8
nadym,RU,72.5167,65.5333,1621136801,39.85,50,99,11.77,39.85
santa maria,BR,-53.8069,-29.6842,1621136801,51.8,100,0,6.91,51.8
bereda,ES,-7.5406,43.2686,1621136802,57.04,100,100,7.0,57.99
burnie,AU,145.9167,-41.0667,1621136802,54.75,70,65,11.99,57.99
vlore,AL,19.4897,40.4667,1621136802,58.91,75,96,1.54,58.91
laurinburg,US,-79.4628,34.7741,1621136803,54.86,71,1,6.04,55.4
itarema,BR,-39.9167,-2.9248,1621136803,76.14,85,99,8.57,76.14
ereymentau,KZ,73.1033,51.6199,1621136804,69.96,51,61,10.92,69.96
rawson,AR,-65.1023,-43.3002,1621136804,53.04,51,93,8.37,53.04
kieta,PG,155.6333,-6.2167,1621136804,85.82,69,40,5.41,85.82
rorvik,NO,11.2373,64.8621,1621136805,48.38,78,95,14.41,48.38
katsuura,JP,140.3,35.1333,1621136805,70.16,80,100,1.99,71.01
lata,PT,-8.3327,40.1629,1621136805,59.0,94,100,1.99,59.0
dzaoudzi,YT,45.2699,-12.7887,1621136806,77.0,94,75,3.44,77.0
saint anthony,US,-93.218,45.0205,1621136806,59.47,59,1,5.75,62.01
atar,MR,-13.0499,20.5169,1621136807,77.22,26,29,7.14,77.22
ixtapa,MX,-105.2,20.7,1621136807,80.29,83,1,0.96,80.6
tatsuno,JP,134.55,34.8667,1621136808,66.94,100,75,9.22,70.0
sinnamary,GF,-52.95,5.3833,1621136808,77.54,87,63,7.4,77.54
shingu,JP,135.9833,33.7333,1621136808,72.88,88,75,9.22,73.99
lovington,US,-103.3485,32.944,1621136809,60.82,91,85,3.0,62.01
tarauaca,BR,-70.7656,-8.1614,1621136809,76.17,79,100,0.63,76.17
lakes entrance,AU,147.981,-37.8811,1621136810,62.01,51,76,1.99,62.01
chekhov,RU,37.4711,55.1431,1621136544,53.76,82,0,6.71,57.2
belaya gora,RU,146.4167,68.5333,1621136810,43.47,59,100,8.72,43.47
ambilobe,MG,49.05,-13.2,1621136811,71.46,77,18,4.21,71.46
walcz,PL,16.4712,53.2779,1621136811,48.99,91,90,5.12,48.99
dunhua,CN,128.2425,43.3725,1621136811,65.25,31,100,2.51,65.25
bilibino,RU,166.4372,68.0546,1621136812,35.28,79,93,1.77,35.28
bubaque,GW,-15.8333,11.2833,1621136812,77.04,84,82,6.38,77.04
priargunsk,RU,119.1012,50.3691,1621136813,62.78,30,1,17.69,62.78
tres lagoas,BR,-51.6783,-20.7511,1621136766,65.25,63,4,5.61,65.25
mae hong son,TH,97.9685,19.3003,1621136814,91.4,58,20,3.44,91.4
bogorodskoye,RU,37.8833,56.55,1621136814,56.68,86,13,11.05,56.68
nanortalik,GL,-45.2371,60.1432,1621136814,36.0,84,14,1.32,36.0
mollendo,PE,-72.0147,-17.0231,1621136815,64.36,87,1,6.58,64.36
ust-nera,RU,143.2,64.5667,1621136815,47.34,62,99,3.62,47.34
poum,NC,164.0167,-20.2333,1621136815,78.26,75,94,16.8,78.26
shimoda,JP,138.95,34.6667,1621136622,68.79,73,75,6.91,71.6
namatanai,PG,152.4333,-3.6667,1621136816,85.71,69,99,10.29,85.71
hjelset,NO,7.4833,62.7833,1621136816,50.0,93,90,6.91,50.0
sorong,ID,131.25,-0.8833,1621136817,82.49,84,38,8.9,82.49
minatitlan,MX,-94.5167,17.9833,1621136817,77.95,83,6,5.1,77.95
turangi,NZ,175.9333,-39.0,1621136738,51.49,83,100,1.63,51.49
kaeo,NZ,173.7833,-35.1,1621136818,69.01,77,10,8.99,69.01
punta alta,AR,-62.0736,-38.8759,1621136818,56.07,81,99,5.26,56.07
cururupu,BR,-44.8683,-1.8283,1621136819,72.93,97,100,2.35,72.93
avera,US,-82.5271,33.194,1621136819,56.55,94,1,5.46,57.2
plymouth,US,-70.8328,41.8334,1621136819,54.23,62,1,3.44,57.0
mildura,AU,142.15,-34.2,1621136820,59.0,51,90,6.91,59.0
mayo,US,-76.5119,38.8876,1621136820,58.15,67,1,9.22,62.6
merauke,ID,140.3333,-8.4667,1621136821,83.37,77,99,14.09,83.37
mount gambier,AU,140.7667,-37.8333,1621136821,55.4,88,90,14.97,55.4
alakurtti,RU,30.3491,66.9672,1621136821,37.99,92,100,1.99,37.99
luanda,AO,13.2343,-8.8368,1621136822,74.55,89,27,8.1,74.55
martapura,ID,114.85,-3.4167,1621136822,86.0,79,40,5.75,86.0
roma,US,-75.4557,43.2128,1621136822,47.05,61,1,1.32,48.2
bozdar,PK,68.636,27.1828,1621136823,84.2,54,40,16.04,84.2
guarda,PT,-7.2658,40.5373,1621136823,58.5,86,100,7.0,59.0
lakatoro,VU,167.4164,-16.0999,1621136824,83.35,74,24,3.69,83.35
comodoro rivadavia,AR,-67.5,-45.8667,1621136806,50.0,66,0,10.36,50.0
two hills,CA,-111.7518,53.7169,1621136824,62.06,34,100,6.91,62.6
bitkine,TD,18.2138,11.9801,1621136825,84.24,47,68,8.75,84.24
aborlan,PH,118.5492,9.4352,1621136825,87.8,66,75,4.61,87.8
chapais,CA,-74.8492,49.7834,1621136826,44.6,76,1,3.44,44.6
minggang,CN,114.0486,32.4586,1621136826,56.91,77,100,14.9,56.91
cape canaveral,US,-80.6048,28.4058,1621136826,73.58,60,75,13.8,75.0
coos bay,US,-124.2179,43.3665,1621136827,50.27,87,90,13.8,51.01
westport,US,-73.3579,41.1415,1621136628,58.32,55,75,6.91,62.6
pringsewu,ID,104.9744,-5.3582,1621136827,89.06,60,18,2.1,89.06
balabac,PH,117.0645,7.9868,1621136828,85.44,73,83,9.91,85.44
batemans bay,AU,150.1833,-35.7167,1621136828,63.0,43,15,5.12,63.0
amparafaravola,MG,48.2167,-17.5833,1621136829,60.84,93,33,3.85,60.84
balurghat,IN,88.7667,25.2167,1621136829,94.93,47,21,7.02,94.93
mouila,GA,11.0559,-1.8685,1621136829,73.6,98,100,0.49,73.6
huejuquilla el alto,MX,-103.8667,22.6,1621136830,66.67,45,16,7.38,66.67
caravelas,BR,-39.2481,-17.7125,1621136830,71.04,71,96,5.95,71.04
muyezerskiy,RU,31.65,63.9333,1621136831,46.36,85,99,7.94,46.36
andra,RU,65.8878,62.5147,1621136831,54.52,64,49,4.74,54.52
sangmelima,CM,11.9833,2.9333,1621136831,67.3,99,100,1.05,67.3
high level,CA,-117.136,58.5169,1621136687,53.6,66,75,10.36,53.6
cairns,AU,145.7667,-16.9167,1621136832,81.7,42,1,18.41,82.4
parabel,RU,81.4825,58.6978,1621136832,46.89,91,100,6.64,46.89
gravdal,NO,13.5031,68.1214,1621136833,43.88,85,100,11.3,43.88
lagoa,PT,-27.9833,39.05,1621136833,60.31,88,100,5.79,60.31
klyuchi,RU,79.1667,52.2667,1621136834,77.05,33,68,13.15,77.05
cooma,AU,149.1333,-36.2333,1621136834,51.8,35,12,5.75,51.8
bonavista,CA,-53.1147,48.6499,1621136835,39.54,87,97,4.61,39.99
santa helena de goias,BR,-50.5969,-17.8136,1621136835,68.07,57,63,2.82,68.07
viedma,AR,-62.9967,-40.8135,1621136835,50.09,82,100,3.83,50.09
port lincoln,AU,135.8667,-34.7333,1621136836,59.0,60,98,12.73,59.0
medford,US,-122.8756,42.3265,1621136836,70.45,23,1,8.05,77.0
kawalu,ID,108.2082,-7.3817,1621136837,83.93,65,54,5.19,83.93
kangema,KE,36.9667,-0.6833,1621136837,52.0,94,30,3.47,52.0
meulaboh,ID,96.1285,4.1363,1621136837,85.35,66,99,3.02,85.35
cumra,TR,32.7745,37.5732,1621136838,55.4,47,0,2.3,55.4
dudinka,RU,86.1778,69.4058,1621136838,18.86,91,86,8.23,18.86
kamenka,RU,42.7678,51.3223,1621136839,66.15,75,42,6.6,66.15
falmouth,GB,-5.0711,50.1544,1621136839,48.11,93,75,9.22,48.2
misratah,LY,15.0925,32.3754,1621136839,63.19,65,6,4.63,63.19
zhigansk,RU,123.3711,66.7697,1621136840,55.62,37,100,21.43,55.62
san isidro,PE,-77.05,-12.1167,1621136840,62.51,88,90,5.75,63.0
kaiserslautern,DE,7.75,49.45,1621136841,49.01,100,75,5.75,50.0
karatsu,JP,129.9697,33.4425,1621136841,81.0,57,100,10.0,81.0
ballina,AU,153.5667,-28.8667,1621136841,64.44,59,40,10.36,66.2
moyale,KE,39.0584,3.5167,1621136842,66.25,77,71,5.61,66.25
san luis,AR,-66.3356,-33.295,1621136701,53.38,65,100,2.19,53.38
puruliya,IN,86.3667,23.3333,1621136842,87.8,66,7,7.87,87.8
panguiranan,PH,123.3185,12.0699,1621136843,89.24,61,76,11.34,89.24
pyay,MM,95.2167,18.8167,1621136697,100.17,34,63,1.81,100.17
sambava,MG,50.1667,-14.2667,1621136843,74.1,82,34,9.86,74.1
raga,SS,25.678,8.4596,1621136844,71.58,90,100,4.03,71.58
sobolevo,RU,31.8996,54.4299,1621136844,52.9,94,73,8.16,52.9
collipulli,CL,-72.4333,-37.95,1621136844,44.17,92,0,3.83,44.17
carutapera,BR,-46.02,-1.195,1621136845,73.96,96,100,2.48,73.96
bihoro,JP,144.1044,43.8228,1621136845,60.8,77,75,17.27,60.8
riohacha,CO,-72.9072,11.5444,1621136846,79.48,76,81,11.81,79.48
geraldton,AU,114.6,-28.7667,1621136846,82.4,26,6,19.57,82.4
rundu,NA,19.7667,-17.9333,1621136846,55.09,50,20,4.07,55.09
la orilla,MX,-102.2333,17.9833,1621136847,81.18,76,4,5.01,81.18
guerrero negro,MX,-114.0611,27.9769,1621136847,59.79,78,1,16.98,59.79
san patricio,US,-97.5169,28.017,1621136847,72.91,94,90,18.41,75.2
benjamin hill,MX,-111.1,30.1667,1621136848,71.98,65,0,1.01,73.99
havre-saint-pierre,CA,-63.5986,50.2334,1621136848,42.8,87,90,7.92,42.8
yerofey pavlovich,RU,121.9667,53.9667,1621136849,62.56,26,2,12.28,62.56
kampot,KH,104.1833,10.6167,1621136849,87.8,84,40,6.91,87.8
atasu,KZ,71.6433,48.6814,1621136850,70.38,33,1,4.65,70.38
harper,LR,-7.7169,4.375,1621136850,78.91,84,50,4.45,78.91
teahupoo,PF,-149.2667,-17.8333,1621136850,82.2,74,75,11.5,82.4
aksay,RU,39.87,47.26,1621136851,68.0,60,0,6.71,68.0
olinda,BR,-34.8553,-8.0089,1621136851,73.4,83,75,4.61,73.4
palu,ID,119.8707,-0.8917,1621136852,86.92,79,82,3.09,86.92
luba,GQ,8.5547,3.4568,1621136852,77.0,94,20,3.44,77.0
vorgashor,RU,63.95,67.5833,1621136852,33.28,76,97,3.83,33.28
tres arroyos,AR,-60.2798,-38.3739,1621136853,52.47,71,93,6.06,52.47
placer,US,-120.7677,39.0666,1621136853,60.3,72,100,5.01,62.01
hobyo,SO,48.5268,5.3505,1621136853,81.5,73,3,21.79,81.5
kalabo,ZM,22.6814,-14.97,1621136854,56.57,57,14,4.54,56.57
morrisburg,CA,-75.1826,44.9001,1621136642,53.01,54,20,4.61,53.6
sterling,US,-77.4286,39.0062,1621136854,54.84,76,1,3.85,57.0
cozumel,MX,-86.9458,20.5083,1621136687,80.28,78,75,6.91,80.6
jieshi,CN,115.8257,22.8134,1621136855,85.46,73,4,13.31,85.46
kostek,RU,46.8541,43.3439,1621136855,70.7,52,57,10.54,70.7
srandakan,ID,110.2506,-7.9386,1621136856,85.64,66,28,13.15,85.64
rabo de peixe,PT,-25.5833,37.8,1621136856,64.4,100,75,10.36,64.4
